{"_id": "59d6db416a31fa810add5c790bf1b5a6", "name": "南京 · 金陵四日", "pax": 4, "startDate": "2026-05-29", "endDate": "2026-06-01", "destinations": [{"name": "南京", "adcode": "320100", "lat": 32.0603, "lng": 118.7969}], "packing": [], "days": [{"id": "nj-d1", "date": "2026-05-29", "title": "抵达南京 · 新街口", "weather": null, "spots": [{"id": "nj-s1", "type": "transport", "time": "14:30", "name": "南京南站", "city": "南京", "adcode": "320100", "lat": 31.9683, "lng": 118.7972, "note": "高铁抵达南京南站，地铁 3 号线直达新街口约 18 分钟。", "address": "雨花台区玉兰路98号"}, {"id": "nj-s2", "type": "hotel", "time": "15:30", "name": "新街口商圈酒店", "city": "南京", "adcode": "320100", "lat": 32.041, "lng": 118.782, "note": "新街口商圈酒店，地铁口步行约 200 米，约 ¥500/晚，住 3 晚。", "price": 500, "nights": 3, "address": "玄武区中山路18号"}, {"id": "nj-s3", "type": "spot", "time": "16:30", "name": "德基广场", "city": "南京", "adcode": "320100", "lat": 32.0408, "lng": 118.7822, "note": "新街口顶级商场，从 B1 美食广场到高层餐厅都能逛，日料、拉面、火锅任选，逛街加晚餐一站解决。", "address": "玄武区中山路18号"}, {"id": "nj-s4", "type": "spot", "time": "20:00", "name": "1912 街区", "city": "南京", "adcode": "320100", "lat": 32.049, "lng": 118.7965, "note": "总统府旁的民国风酒吧街，灯笼配老洋楼，适合饭后散步、找家小酒馆小酌。", "address": "玄武区长江路288号"}, {"id": "nj-s5", "type": "meal", "name": "当日餐饮", "city": "南京", "adcode": "320100", "price": 200, "note": "当日餐饮合计预算"}]}, {"id": "nj-d2", "date": "2026-05-30", "title": "钟山风景区 · 总统府 · 夜游秦淮", "weather": null, "spots": [{"id": "nj-s6", "type": "spot", "time": "09:30", "name": "中山陵 · 美龄宫", "city": "南京", "adcode": "320100", "lat": 32.059, "lng": 118.855, "note": "钟山风景区核心：392 级台阶通往中山陵，免费但需预约。下来逛美龄宫，秋季「梧桐项链」最有名，初夏也好看。", "address": "玄武区中山陵9号"}, {"id": "nj-s7", "type": "spot", "time": "14:00", "name": "总统府", "city": "南京", "adcode": "320100", "lat": 32.044, "lng": 118.792, "note": "明清两江总督署加民国总统府，门票 ¥40/人。后花园适合拍照，闭馆前 1 小时停止入场。", "address": "玄武区长江路292号"}, {"id": "nj-s8", "type": "spot", "time": "18:00", "name": "夫子庙 · 秦淮河", "city": "南京", "adcode": "320100", "lat": 32.022, "lng": 118.786, "note": "贡院街—大成殿—文德桥一线，乌衣巷、李香君故居都在附近。可坐画舫夜游秦淮河（夜场约 ¥100/人）。", "address": "秦淮区贡院西街53号"}, {"id": "nj-s9", "type": "meal", "name": "当日餐饮", "city": "南京", "adcode": "320100", "price": 600, "note": "当日餐饮合计预算"}, {"id": "nj-s10", "type": "spot", "name": "当日门票", "city": "南京", "adcode": "320100", "price": 560, "note": "当日景点门票合计"}]}, {"id": "nj-d3", "date": "2026-05-31", "title": "南京博物院 · 老门东", "weather": null, "spots": [{"id": "nj-s11", "type": "spot", "time": "10:30", "name": "鸡鸣汤包 / 早午餐", "city": "南京", "adcode": "320100", "lat": 32.044, "lng": 118.79, "note": "随便挑一家鸡鸣汤包或蒋有记锅贴，¥30/人吃饱。", "address": "玄武区珠江路"}, {"id": "nj-s12", "type": "spot", "time": "12:00", "name": "南京博物院", "city": "南京", "adcode": "320100", "lat": 32.041, "lng": 118.84, "note": "中国三大博物馆之一，免费但需提前预约。「民国馆」一条街最出片，历史馆青瓷镇馆，逛 3 小时刚好。", "address": "玄武区中山东路321号"}, {"id": "nj-s13", "type": "spot", "time": "17:00", "name": "老门东历史街区", "city": "南京", "adcode": "320100", "lat": 32.022, "lng": 118.79, "note": "牌坊—小郑酥烧饼—先锋书店一线。晚饭推荐「南京大牌档」，全家福套餐人均 ¥120 上下。", "address": "秦淮区箍桶巷99号"}, {"id": "nj-s14", "type": "meal", "name": "当日餐饮", "city": "南京", "adcode": "320100", "price": 700, "note": "当日餐饮合计预算"}]}, {"id": "nj-d4", "date": "2026-06-01", "title": "鸡鸣寺 · 玄武湖 · 返程", "weather": null, "spots": [{"id": "nj-s15", "type": "spot", "time": "09:30", "name": "鸡鸣寺", "city": "南京", "adcode": "320100", "lat": 32.056, "lng": 118.794, "note": "金陵第一古刹，门票 ¥10/人。鸡鸣寺—台城—玄武湖一线走完很完整。", "address": "玄武区鸡鸣寺路1号"}, {"id": "nj-s16", "type": "spot", "time": "11:00", "name": "玄武湖 · 环洲", "city": "南京", "adcode": "320100", "lat": 32.067, "lng": 118.792, "note": "城内最大皇家湖泊，免费。初夏荷花初开，可租自行车或电瓶车环湖一圈 ¥20–40。", "address": "玄武区玄武巷1号"}, {"id": "nj-s17", "type": "spot", "time": "13:30", "name": "颐和路民国公馆区", "city": "南京", "adcode": "320100", "lat": 32.056, "lng": 118.772, "note": "南京最美街区之一：法国梧桐配民国小洋楼，第十一片区已对外开放（咖啡馆、小展览）。", "address": "鼓楼区颐和路"}, {"id": "nj-s18", "type": "transport", "time": "17:30", "name": "南京南站 · 返程", "city": "南京", "adcode": "320100", "lat": 31.9683, "lng": 118.7972, "note": "结束行程，南京南站乘高铁返程。", "address": "雨花台区玉兰路98号"}, {"id": "nj-s19", "type": "meal", "name": "当日餐饮", "city": "南京", "adcode": "320100", "price": 300, "note": "当日餐饮合计预算"}, {"id": "nj-s20", "type": "spot", "name": "当日门票", "city": "南京", "adcode": "320100", "price": 40, "note": "当日景点门票合计"}]}], "city": "南京", "region": "江苏", "dayCount": 4, "spotCount": 20, "tags": ["历史人文", "美食", "citywalk"], "audience": ["情侣", "朋友"], "seasons": ["春", "秋"], "featured": true, "sortWeight": 100, "coverImages": [], "version": 1, "updatedAt": 1750000000000}
{"_id": "59d6db416a31fa810add5c7a4e60cecb", "name": "哈尔滨 · 漠河寻北", "pax": 2, "startDate": "2026-10-01", "endDate": "2026-10-07", "destinations": [{"name": "哈尔滨", "adcode": "230100", "lat": 45.8038, "lng": 126.535}, {"name": "漠河", "adcode": "232701", "lat": 53.473, "lng": 122.539}], "packing": [], "days": [{"id": "mohe-d1", "date": "2026-10-01", "title": "抵达冰城哈尔滨", "weather": null, "spots": [{"id": "mohe-s1", "type": "transport", "time": "12:00", "name": "哈尔滨太平国际机场", "city": "哈尔滨", "adcode": "230100", "lat": 45.6234, "lng": 126.2503, "note": "出机场气温低，先穿好羽绒服再走。机场大巴到中央大街约 50 分钟。", "address": "道里区迎宾一路"}, {"id": "mohe-s2", "type": "spot", "time": "15:30", "name": "圣索菲亚大教堂", "city": "哈尔滨", "adcode": "230100", "lat": 45.7717, "lng": 126.6184, "note": "拜占庭穹顶，傍晚打灯最美。门票 20 元含内部展览。", "address": "道里区透笼街88号"}, {"id": "mohe-s3", "type": "spot", "time": "18:00", "name": "中央大街", "city": "哈尔滨", "adcode": "230100", "lat": 45.777, "lng": 126.6193, "note": "面包石路面，马迭尔冰棍冬天反而更出片。华梅西餐厅吃红菜汤。", "address": "道里区中央大街"}, {"id": "mohe-s4", "type": "meal", "name": "当日餐饮", "city": "哈尔滨", "adcode": "230100", "price": 180, "note": "当日餐饮合计预算"}]}, {"id": "mohe-d2", "date": "2026-10-02", "title": "哈尔滨 · 江畔与老道外", "weather": null, "spots": [{"id": "mohe-s5", "type": "spot", "time": "09:30", "name": "中华巴洛克 · 老道外", "city": "哈尔滨", "adcode": "230100", "lat": 45.7821, "lng": 126.645, "note": "百年商铺街区，张包铺锅包肉、张飞扒肉一定要吃。", "address": "道外区南二道街32号"}, {"id": "mohe-s6", "type": "spot", "time": "12:30", "name": "松花江畔 · 防洪纪念塔", "city": "哈尔滨", "adcode": "230100", "lat": 45.7821, "lng": 126.6188, "note": "冬天江面冻实可以走上去；注意冰窟窿警示牌。", "address": "道里区中央大街尽头广场"}, {"id": "mohe-s7", "type": "spot", "time": "14:30", "name": "太阳岛雪博会", "city": "哈尔滨", "adcode": "230100", "lat": 45.79, "lng": 126.6072, "note": "雪雕主场地，门票 240 元。下午光线斜，雪雕轮廓最立体。", "address": "松北区太阳大道3号"}, {"id": "mohe-s8", "type": "spot", "time": "18:00", "name": "冰雪大世界", "city": "哈尔滨", "adcode": "230100", "lat": 45.8047, "lng": 126.5775, "note": "夜场最佳，建议待到 21:00 后人少。穿到极限保暖，手机怕冻。", "address": "松北区太阳岛西区"}, {"id": "mohe-s9", "type": "meal", "name": "当日餐饮", "city": "哈尔滨", "adcode": "230100", "price": 260, "note": "当日餐饮合计预算"}, {"id": "mohe-s10", "type": "spot", "name": "当日门票", "city": "哈尔滨", "adcode": "230100", "price": 330, "note": "当日景点门票合计"}]}, {"id": "mohe-d3", "date": "2026-10-03", "title": "夜行火车 · 向北进发", "weather": null, "spots": [{"id": "mohe-s11", "type": "transport", "time": "19:30", "name": "哈尔滨火车站", "city": "哈尔滨", "adcode": "230100", "lat": 45.756, "lng": 126.6228, "note": "搭夜行卧铺向北，提前 1 小时取票进站；备好零食热水。", "address": "南岗区铁路街1号"}, {"id": "mohe-s12", "type": "spot", "time": "06:40", "name": "加格达奇站 · 经停", "city": "大兴安岭", "adcode": "232700", "lat": 50.4147, "lng": 124.1167, "note": "凌晨经停大兴安岭门户，可下车透气 15 分钟。", "address": "加格达奇区迎宾路"}, {"id": "mohe-s13", "type": "meal", "name": "当日餐饮", "price": 120, "note": "当日餐饮合计预算"}]}, {"id": "mohe-d4", "date": "2026-10-04", "title": "抵达漠河 · 五六纪念馆", "weather": null, "spots": [{"id": "mohe-s14", "type": "transport", "time": "12:30", "name": "漠河火车站", "city": "漠河", "adcode": "232701", "lat": 53.1714, "lng": 122.5391, "note": "中国最北火车站。出站可包车直奔北极村，约 80 公里。", "address": "漠河市西林吉镇"}, {"id": "mohe-s15", "type": "spot", "time": "14:00", "name": "五六火灾纪念馆", "city": "漠河", "adcode": "232701", "lat": 53.009, "lng": 122.553, "note": "1987 年大火纪念，记录大兴安岭浩劫；门票 60 元，约 1 小时。", "address": "漠河市西林吉镇中华路"}, {"id": "mohe-s16", "type": "transport", "time": "17:30", "name": "北极村", "city": "漠河", "adcode": "232701", "lat": 53.4773, "lng": 122.355, "note": "中国最北村落，到达即看落日。民宿 18:00 开晚饭。", "address": "漠河市北极镇北极村"}, {"id": "mohe-s17", "type": "meal", "name": "当日餐饮", "city": "漠河", "adcode": "232701", "price": 160, "note": "当日餐饮合计预算"}, {"id": "mohe-s18", "type": "spot", "name": "当日门票", "city": "漠河", "adcode": "232701", "price": 60, "note": "当日景点门票合计"}]}, {"id": "mohe-d5", "date": "2026-10-05", "title": "北极村 · 最北的一切", "weather": null, "spots": [{"id": "mohe-s19", "type": "spot", "time": "09:00", "name": "最北邮局", "city": "漠河", "adcode": "232701", "lat": 53.481, "lng": 122.358, "note": "寄一张明信片回家，邮戳上有「最北」字样。", "address": "漠河市北极镇北极村"}, {"id": "mohe-s20", "type": "spot", "time": "10:30", "name": "最北点广场 · 神州北极", "city": "漠河", "adcode": "232701", "lat": 53.556, "lng": 122.33, "note": "地标石碑打卡。零下 30°C，泼水成冰试试看。", "address": "漠河市北极镇北极村"}, {"id": "mohe-s21", "type": "spot", "time": "13:00", "name": "北极沙洲 · 中俄分界", "city": "漠河", "adcode": "232701", "lat": 53.557, "lng": 122.35, "note": "黑龙江对岸即俄罗斯。冬季江面封冻可走上去；切勿越界。", "address": "漠河市北极镇北极沙洲岛"}, {"id": "mohe-s22", "type": "spot", "time": "15:30", "name": "圣诞滑雪场", "city": "漠河", "adcode": "232701", "lat": 53.478, "lng": 122.369, "note": "中国最北滑雪场，价格亲民；夜场可看极光（运气好）。", "address": "漠河市北极镇北极村"}, {"id": "mohe-s23", "type": "meal", "name": "当日餐饮", "city": "漠河", "adcode": "232701", "price": 200, "note": "当日餐饮合计预算"}, {"id": "mohe-s24", "type": "spot", "name": "当日门票", "city": "漠河", "adcode": "232701", "price": 120, "note": "当日景点门票合计"}]}, {"id": "mohe-d6", "date": "2026-10-06", "title": "北红村 · 龙江第一湾", "weather": null, "spots": [{"id": "mohe-s25", "type": "spot", "time": "10:00", "name": "北红村", "city": "漠河", "adcode": "232701", "lat": 53.486, "lng": 123.254, "note": "比北极村更原生态，木刻楞老屋。东北饺子管够。", "address": "漠河市北红村"}, {"id": "mohe-s26", "type": "spot", "time": "14:00", "name": "龙江第一湾", "city": "漠河", "adcode": "232701", "lat": 53.3447, "lng": 121.079, "note": "登 999 级阶梯到观景台，黑龙江 Ω 型大转弯，绝景。", "address": "漠河市龙江第一湾景区"}, {"id": "mohe-s27", "type": "spot", "time": "16:30", "name": "乌苏里浅滩 · 中国最北点", "city": "漠河", "adcode": "232701", "lat": 53.5644, "lng": 122.5104, "note": "真正的北纬 53°33' 中国最北端纪念碑。", "address": "漠河市乌苏里浅滩"}, {"id": "mohe-s28", "type": "hotel", "time": "20:00", "name": "漠河市区住宿", "city": "漠河", "adcode": "232701", "lat": 52.97, "lng": 122.54, "note": "晚饭推荐「北极人家」铁锅炖。", "price": 320, "nights": 1, "address": "漠河市西林吉镇振兴街"}, {"id": "mohe-s29", "type": "meal", "name": "当日餐饮", "city": "漠河", "adcode": "232701", "price": 220, "note": "当日餐饮合计预算"}, {"id": "mohe-s30", "type": "spot", "name": "当日门票", "city": "漠河", "adcode": "232701", "price": 100, "note": "当日景点门票合计"}]}, {"id": "mohe-d7", "date": "2026-10-07", "title": "古莲机场 · 返程", "weather": null, "spots": [{"id": "mohe-s31", "type": "transport", "time": "10:00", "name": "漠河古莲机场", "city": "漠河", "adcode": "232701", "lat": 52.9133, "lng": 122.4302, "note": "中国最北机场，候机楼很小。航班多经停哈尔滨中转返程。", "address": "漠河市古莲镇"}, {"id": "mohe-s32", "type": "meal", "name": "当日餐饮", "city": "漠河", "adcode": "232701", "price": 90, "note": "当日餐饮合计预算"}]}], "city": "漠河", "region": "黑龙江", "dayCount": 7, "spotCount": 32, "tags": ["自然", "古镇"], "audience": ["情侣", "朋友"], "seasons": ["秋", "冬", "看雪"], "featured": true, "sortWeight": 90, "coverImages": [], "version": 1, "updatedAt": 1750000000000}
{"_id": "59d6db416a31fa810add5c7b314c3c84", "name": "九寨沟 · 童话之旅", "pax": 4, "startDate": "2026-08-29", "endDate": "2026-09-01", "destinations": [{"name": "成都", "adcode": "510100", "lat": 30.5728, "lng": 104.0668}, {"name": "黄龙", "adcode": "513228", "lat": 32.7558, "lng": 103.829}, {"name": "九寨沟", "adcode": "513225", "lat": 33.2606, "lng": 103.9239}], "packing": [], "days": [{"id": "jzg-d1", "date": "2026-08-29", "title": "抵达成都 · 宽窄锦里", "weather": null, "spots": [{"id": "jzg-s1", "type": "transport", "time": "13:30", "name": "成都天府国际机场", "city": "成都", "adcode": "510100", "lat": 30.314, "lng": 104.4421, "note": "T1 落地。机场快线或地铁 18 号线进市区约 1 小时。", "address": "简阳市芦葭镇"}, {"id": "jzg-s2", "type": "spot", "time": "17:00", "name": "宽窄巷子", "city": "成都", "adcode": "510100", "lat": 30.6743, "lng": 104.0617, "note": "傍晚最有烟火气，三联里小吃逛一圈。掏耳朵 50/人。", "address": "青羊区金河路宽窄巷子"}, {"id": "jzg-s3", "type": "spot", "time": "19:30", "name": "锦里 + 武侯祠", "city": "成都", "adcode": "510100", "lat": 30.6444, "lng": 104.0467, "note": "夜景灯笼超出片，吃三大炮、糖油果子。", "address": "武侯区武侯祠大街231号"}, {"id": "jzg-s4", "type": "meal", "name": "当日餐饮", "city": "成都", "adcode": "510100", "price": 600, "note": "当日餐饮合计预算"}]}, {"id": "jzg-d2", "date": "2026-08-30", "title": "高铁入山 · 黄龙瑶池", "weather": null, "spots": [{"id": "jzg-s5", "type": "transport", "time": "07:30", "name": "成都东站", "city": "成都", "adcode": "510100", "lat": 30.626, "lng": 104.1567, "note": "搭成兰高铁到黄龙九寨站，约 2h15m。", "address": "成华区青衣江路"}, {"id": "jzg-s6", "type": "transport", "time": "09:50", "name": "黄龙九寨站", "city": "黄龙", "adcode": "513228", "lat": 32.7833, "lng": 103.7167, "note": "出站打车或拼车前往黄龙景区约 1 小时。海拔近 3000m，注意慢行。", "address": "松潘县川主寺镇"}, {"id": "jzg-s7", "type": "spot", "time": "11:30", "name": "黄龙风景区", "city": "黄龙", "adcode": "513228", "lat": 32.7547, "lng": 103.8243, "note": "五彩池、争艳池为最佳观赏点。索道上加步行下，约 4 小时。备红景天预防高反。门票 170/人。", "address": "松潘县黄龙乡"}, {"id": "jzg-s8", "type": "hotel", "time": "18:30", "name": "九寨沟口 · 沟口大酒店", "city": "黄龙", "adcode": "513228", "lat": 33.185, "lng": 103.921, "note": "海拔约 1900m，回到舒适区。晚餐藏式火锅。", "price": 1400, "nights": 1, "address": "九寨沟县漳扎镇"}, {"id": "jzg-s9", "type": "meal", "name": "当日餐饮", "city": "黄龙", "adcode": "513228", "price": 520, "note": "当日餐饮合计预算"}, {"id": "jzg-s10", "type": "spot", "name": "当日门票", "city": "黄龙", "adcode": "513228", "price": 680, "note": "当日景点门票合计"}]}, {"id": "jzg-d3", "date": "2026-08-31", "title": "九寨沟 · 童话世界", "weather": null, "spots": [{"id": "jzg-s11", "type": "transport", "time": "07:30", "name": "九寨沟景区 · 沟口", "city": "九寨沟", "adcode": "513225", "lat": 33.1856, "lng": 103.9213, "note": "建议早高峰入场，先坐观光车直奔最深处「长海 / 五彩池」。门票 169 加观光车 90，共 259/人。", "address": "九寨沟县漳扎镇"}, {"id": "jzg-s12", "type": "spot", "time": "10:30", "name": "五花海 · 树正沟", "city": "九寨沟", "adcode": "513225", "lat": 33.228, "lng": 103.905, "note": "Y 字型沟口三条沟最经典段；五花海色彩最浓。", "address": "九寨沟县漳扎镇九寨沟景区内"}, {"id": "jzg-s13", "type": "spot", "time": "13:00", "name": "诺日朗瀑布", "city": "九寨沟", "adcode": "513225", "lat": 33.231, "lng": 103.918, "note": "国内最宽钙华瀑布；中央换乘点，可吃自带午餐。", "address": "九寨沟县漳扎镇九寨沟景区内"}, {"id": "jzg-s14", "type": "spot", "time": "14:30", "name": "长海 + 五彩池", "city": "九寨沟", "adcode": "513225", "lat": 33.05, "lng": 103.927, "note": "沟内最高海拔湖泊（约 3100m），水色翡翠绿。", "address": "九寨沟县漳扎镇九寨沟景区内"}, {"id": "jzg-s15", "type": "transport", "time": "18:30", "name": "黄龙九寨站", "city": "九寨沟", "adcode": "513225", "lat": 32.7833, "lng": 103.7167, "note": "搭高铁返成都约 2h15m。", "address": "松潘县川主寺镇"}, {"id": "jzg-s16", "type": "transport", "time": "21:00", "name": "成都东站", "city": "成都", "adcode": "510100", "lat": 30.626, "lng": 104.1567, "note": "回市区入住春熙路。夜宵冷淡杯加烤兔头。", "address": "成华区青衣江路"}, {"id": "jzg-s17", "type": "meal", "name": "当日餐饮", "city": "九寨沟", "adcode": "513225", "price": 480, "note": "当日餐饮合计预算"}, {"id": "jzg-s18", "type": "spot", "name": "当日门票", "city": "九寨沟", "adcode": "513225", "price": 1036, "note": "当日景点门票合计"}]}, {"id": "jzg-d4", "date": "2026-09-01", "title": "成都 · 萌兽与古镇", "weather": null, "spots": [{"id": "jzg-s19", "type": "spot", "time": "08:30", "name": "大熊猫繁育研究基地", "city": "成都", "adcode": "510100", "lat": 30.735, "lng": 104.1483, "note": "越早越好，9 点前熊猫最活跃。门票 55/人。", "address": "成华区熊猫大道1375号"}, {"id": "jzg-s20", "type": "spot", "time": "13:00", "name": "杜甫草堂", "city": "成都", "adcode": "510100", "lat": 30.662, "lng": 104.026, "note": "园林清幽，避开正午烈日；茶馆喝盖碗茶。", "address": "青羊区青华路37号"}, {"id": "jzg-s21", "type": "spot", "time": "17:00", "name": "春熙路 · 太古里", "city": "成都", "adcode": "510100", "lat": 30.6529, "lng": 104.0808, "note": "购物加拍照，IFS 大熊猫地标必打卡。", "address": "锦江区中纱帽街8号"}, {"id": "jzg-s22", "type": "spot", "time": "19:30", "name": "钢管厂五区小郡肝串串", "city": "成都", "adcode": "510100", "lat": 30.666, "lng": 104.075, "note": "地道串串，蒜蓉酱加干碟蘸料。4 人约 ¥400。", "address": "锦江区春熙路"}, {"id": "jzg-s23", "type": "meal", "name": "当日餐饮", "city": "成都", "adcode": "510100", "price": 700, "note": "当日餐饮合计预算"}, {"id": "jzg-s24", "type": "spot", "name": "当日门票", "city": "成都", "adcode": "510100", "price": 220, "note": "当日景点门票合计"}]}], "city": "九寨沟", "region": "四川", "dayCount": 4, "spotCount": 24, "tags": ["自然", "美食"], "audience": ["亲子", "朋友"], "seasons": ["夏", "秋"], "featured": true, "sortWeight": 80, "coverImages": [], "version": 1, "updatedAt": 1750000000000}
